{
  "type": "FeatureCollection",
  "name": "malaysia_state_points",
  "crs": {
    "type": "name",
    "properties": {
      "name": "urn:ogc:def:crs:OGC:1.3:CRS84"
    }
  },
  "features": [
    {
      "type": "Feature",
      "properties": {
        "StateID": "41336",
        "StateName": "Johor"
      },
      "geometry": {
        "type": "Point",
        "coordinates": [103.7618, 1.4927]
      }
    },
    {
      "type": "Feature",
      "properties": {
        "StateID": "41325",
        "StateName": "Kedah"
      },
      "geometry": {
        "type": "Point",
        "coordinates": [100.3685, 6.1184]
      }
    },
    {
      "type": "Feature",
      "properties": {
        "StateID": "41367",
        "StateName": "Kelantan"
      },
      "geometry": {
        "type": "Point",
        "coordinates": [102.2386, 6.1254]
      }
    },
    {
      "type": "Feature",
      "properties": {
        "StateID": "41401",
        "StateName": "Kuala Lumpur"
      },
      "geometry": {
        "type": "Point",
        "coordinates": [101.6869, 3.1390]
      }
    },
    {
      "type": "Feature",
      "properties": {
        "StateID": "41415",
        "StateName": "Labuan"
      },
      "geometry": {
        "type": "Point",
        "coordinates": [115.2424, 5.2831]
      }
    },
    {
      "type": "Feature",
      "properties": {
        "StateID": "41324",
        "StateName": "Melaka"
      },
      "geometry": {
        "type": "Point",
        "coordinates": [102.2501, 2.1896]
      }
    },
    {
      "type": "Feature",
      "properties": {
        "StateID": "41332",
        "StateName": "Negeri Sembilan"
      },
      "geometry": {
        "type": "Point",
        "coordinates": [101.9424, 2.7297]
      }
    },
    {
      "type": "Feature",
      "properties": {
        "StateID": "41335",
        "StateName": "Pahang"
      },
      "geometry": {
        "type": "Point",
        "coordinates": [103.3256, 3.8077]
      }
    },
    {
      "type": "Feature",
      "properties": {
        "StateID": "41330",
        "StateName": "Perak"
      },
      "geometry": {
        "type": "Point",
        "coordinates": [101.0901, 4.5975]
      }
    },
    {
      "type": "Feature",
      "properties": {
        "StateID": "41380",
        "StateName": "Perlis"
      },
      "geometry": {
        "type": "Point",
        "coordinates": [100.1986, 6.4414]
      }
    },
    {
      "type": "Feature",
      "properties": {
        "StateID": "41327",
        "StateName": "Pulau Pinang"
      },
      "geometry": {
        "type": "Point",
        "coordinates": [100.3354, 5.4141]
      }
    },
    {
      "type": "Feature",
      "properties": {
        "StateID": "41345",
        "StateName": "Sabah"
      },
      "geometry": {
        "type": "Point",
        "coordinates": [116.0735, 5.9804]
      }
    },
    {
      "type": "Feature",
      "properties": {
        "StateID": "41342",
        "StateName": "Sarawak"
      },
      "geometry": {
        "type": "Point",
        "coordinates": [110.3592, 1.5533]
      }
    },
    {
      "type": "Feature",
      "properties": {
        "StateID": "41326",
        "StateName": "Selangor"
      },
      "geometry": {
        "type": "Point",
        "coordinates": [101.5183, 3.0738]
      }
    },
    {
      "type": "Feature",
      "properties": {
        "StateID": "41361",
        "StateName": "Terengganu"
      },
      "geometry": {
        "type": "Point",
        "coordinates": [103.1370, 5.3302]
      }
    }
  ]
}
